[
{"name":"仓房镇", "latitude":32.772200, "longitude":111.483000},
{"name":"仓房汽车站", "latitude":32.771050, "longitude":111.481388},
{"name":"张营码头", "latitude":32.812220, "longitude":111.542884},
{"name":"石桥码头", "latitude":32.817790, "longitude":111.567422},
{"name":"下寺码头", "latitude":32.775290, "longitude":111.527900},
{"name":"宋岗码头", "latitude":32.766900, "longitude":111.645480},
{"name":"宋岗码头", "latitude":32.766900, "longitude":111.645480},
{"name":"丹江风景区", "latitude":32.764300, "longitude":111.645850},
{"name":"S335至石桥轮渡路口", "latitude":32.861320, "longitude":111.63765},
{"name":"香严寺", "latitude":32.777300, "longitude":111.441387},
{"name":"坐禅谷", "latitude":32.789200, "longitude":111.442446},
{"name":"河南丹江大观苑", "latitude":32.838300, "longitude":111.553950},
{"name":"淅川县", "latitude":33.137500, "longitude":111.487440},
]